[
    {
        "id": "PACK001",
        "creatorId": "USER001",
        "isPaidSlot": false,
        "paidSlotTier": null,
        "imageUrl": "assets/images/pack_puppy_1.png",
        "title": "Puppy Play Group looooooooooooooooong",
        "datetime": "2023-01-01 10:00",
        "location": {
            "address":"1400 W Mesquite St, Chandler, AZ, US, 85224",
            "streetNumber": "1400",
            "street": "W Mesquite St",
            "city": "Chandler",
            "state": "AZ",
            "country": "US",
            "zipcode": "85224"
        }
    },
    {
        "id": "PACK001",
        "creatorId": "USER001",
        "isPaidSlot": false,
        "paidSlotTier": null,
        "imageUrl": "assets/images/pack_puppy_1.png",
        "title": "Puppy Play Group looooooooooooooooong",
        "datetime": "2023-01-01 10:00",
        "location": {
            "address":"1400 W Mesquite St, Chandler, AZ, US, 85224",
            "streetNumber": "1400",
            "street": "W Mesquite St",
            "city": "Chandler",
            "state": "AZ",
            "country": "US",
            "zipcode": "85224"
        }
    },
    {
        "id": "PACK001",
        "creatorId": "USER001",
        "isPaidSlot": false,
        "paidSlotTier": null,
        "imageUrl": "assets/images/pack_puppy_1.png",
        "title": "Puppy Play Group looooooooooooooooong",
        "datetime": "2023-01-01 10:00",
        "location": {
            "address":"1400 W Mesquite St, Chandler, AZ, US, 85224",
            "streetNumber": "1400",
            "street": "W Mesquite St",
            "city": "Chandler",
            "state": "AZ",
            "country": "US",
            "zipcode": "85224"
        }
    },
    {
        "id": "PACK001",
        "creatorId": "USER001",
        "isPaidSlot": false,
        "paidSlotTier": null,
        "imageUrl": "assets/images/pack_puppy_1.png",
        "title": "Puppy Play Group looooooooooooooooong",
        "datetime": "2023-01-01 10:00",
        "location": {
            "address":"1400 W Mesquite St, Chandler, AZ, US, 85224",
            "streetNumber": "1400",
            "street": "W Mesquite St",
            "city": "Chandler",
            "state": "AZ",
            "country": "US",
            "zipcode": "85224"
        }
    },
    {
        "id": "PACK001",
        "creatorId": "USER001",
        "isPaidSlot": false,
        "paidSlotTier": null,
        "imageUrl": "assets/images/pack_puppy_1.png",
        "title": "Puppy Play Group looooooooooooooooong",
        "datetime": "2023-01-01 10:00",
        "location": {
            "address":"1400 W Mesquite St, Chandler, AZ, US, 85224",
            "streetNumber": "1400",
            "street": "W Mesquite St",
            "city": "Chandler",
            "state": "AZ",
            "country": "US",
            "zipcode": "85224"
        }
    },
    {
        "id": "PACK001",
        "creatorId": "USER001",
        "isPaidSlot": false,
        "paidSlotTier": null,
        "imageUrl": "assets/images/pack_puppy_1.png",
        "title": "Puppy Play Group looooooooooooooooong",
        "datetime": "2023-01-01 10:00",
        "location": {
            "address":"1400 W Mesquite St, Chandler, AZ, US, 85224",
            "streetNumber": "1400",
            "street": "W Mesquite St",
            "city": "Chandler",
            "state": "AZ",
            "country": "US",
            "zipcode": "85224"
        }
    },
    {
        "id": "PACK001",
        "creatorId": "USER001",
        "isPaidSlot": false,
        "paidSlotTier": null,
        "imageUrl": "assets/images/pack_puppy_1.png",
        "title": "Puppy Play Group looooooooooooooooong",
        "datetime": "2023-01-01 10:00",
        "location": {
            "address":"1400 W Mesquite St, Chandler, AZ, US, 85224",
            "streetNumber": "1400",
            "street": "W Mesquite St",
            "city": "Chandler",
            "state": "AZ",
            "country": "US",
            "zipcode": "85224"
        }
    },
    {
        "id": "PACK001",
        "creatorId": "USER001",
        "isPaidSlot": false,
        "paidSlotTier": null,
        "imageUrl": "assets/images/pack_puppy_1.png",
        "title": "Puppy Play Group looooooooooooooooong",
        "datetime": "2023-01-01 10:00",
        "location": {
            "address":"1400 W Mesquite St, Chandler, AZ, US, 85224",
            "streetNumber": "1400",
            "street": "W Mesquite St",
            "city": "Chandler",
            "state": "AZ",
            "country": "US",
            "zipcode": "85224"
        }
    },
    {
        "id": "PACK001",
        "creatorId": "USER001",
        "isPaidSlot": false,
        "paidSlotTier": null,
        "imageUrl": "assets/images/pack_puppy_1.png",
        "title": "Puppy Play Group looooooooooooooooong",
        "datetime": "2023-01-01 10:00",
        "location": {
            "address":"1400 W Mesquite St, Chandler, AZ, US, 85224",
            "streetNumber": "1400",
            "street": "W Mesquite St",
            "city": "Chandler",
            "state": "AZ",
            "country": "US",
            "zipcode": "85224"
        }
    },
    {
        "id": "PACK001",
        "creatorId": "USER001",
        "isPaidSlot": false,
        "paidSlotTier": null,
        "imageUrl": "assets/images/pack_puppy_1.png",
        "title": "Puppy Play Group looooooooooooooooong",
        "datetime": "2023-01-01 10:00",
        "location": {
            "address":"1400 W Mesquite St, Chandler, AZ, US, 85224",
            "streetNumber": "1400",
            "street": "W Mesquite St",
            "city": "Chandler",
            "state": "AZ",
            "country": "US",
            "zipcode": "85224"
        }
    },
    {
        "id": "PACK002",
        "creatorId": "BSE001",
        "isPaidSlot": true,
        "paidSlotTier": "large",
        "imageUrl": "assets/images/pack_puppy_1.png",
        "title": "Large 0",
        "datetime": "2023-01-01 10:00",
        "location": {
            "address":"1400 W Mesquite St, Chandler, AZ, US, 85224",
            "streetNumber": "1400",
            "street": "W Mesquite St",
            "city": "Chandler",
            "state": "AZ",
            "country": "US",
            "zipcode": "85224"
        }
    },
    {
        "id": "PACK002",
        "creatorId": "BSE001",
        "isPaidSlot": true,
        "paidSlotTier": "large",
        "imageUrl": "assets/images/pack_puppy_1.png",
        "title": "Large 1",
        "datetime": "2023-01-01 10:00",
        "location": {
            "address":"1400 W Mesquite St, Chandler, AZ, US, 85224",
            "streetNumber": "1400",
            "street": "W Mesquite St",
            "city": "Chandler",
            "state": "AZ",
            "country": "US",
            "zipcode": "85224"
        }
    },
    {
        "id": "PACK002",
        "creatorId": "BSE001",
        "isPaidSlot": true,
        "paidSlotTier": "large",
        "imageUrl": "assets/images/pack_puppy_1.png",
        "title": "Large 2",
        "datetime": "2023-01-01 10:00",
        "location": {
            "address":"1400 W Mesquite St, Chandler, AZ, US, 85224",
            "streetNumber": "1400",
            "street": "W Mesquite St",
            "city": "Chandler",
            "state": "AZ",
            "country": "US",
            "zipcode": "85224"
        }
    },
    {
        "id": "PACK003",
        "creatorId": "BSE001",
        "isPaidSlot": true,
        "paidSlotTier": "small",
        "imageUrl": "assets/images/pack_puppy_1.png",
        "title": "Small 0",
        "datetime": "2023-01-01 10:00",
        "location": {
            "address":"1400 W Mesquite St, Chandler, AZ, US, 85224",
            "streetNumber": "1400",
            "street": "W Mesquite St",
            "city": "Chandler",
            "state": "AZ",
            "country": "US",
            "zipcode": "85224"
        }
    },
    {
        "id": "PACK003",
        "creatorId": "BSE001",
        "isPaidSlot": true,
        "paidSlotTier": "small",
        "imageUrl": "assets/images/pack_puppy_1.png",
        "title": "Small 1",
        "datetime": "2023-01-01 10:00",
        "location": {
            "address":"1400 W Mesquite St, Chandler, AZ, US, 85224",
            "streetNumber": "1400",
            "street": "W Mesquite St",
            "city": "Chandler",
            "state": "AZ",
            "country": "US",
            "zipcode": "85224"
        }
    },    
    {
        "id": "PACK003",
        "creatorId": "BSE001",
        "isPaidSlot": true,
        "paidSlotTier": "small",
        "imageUrl": "assets/images/pack_puppy_1.png",
        "title": "Small 2",
        "datetime": "2023-01-01 10:00",
        "location": {
            "address":"1400 W Mesquite St, Chandler, AZ, US, 85224",
            "streetNumber": "1400",
            "street": "W Mesquite St",
            "city": "Chandler",
            "state": "AZ",
            "country": "US",
            "zipcode": "85224"
        }
    },
    {
        "id": "PACK003",
        "creatorId": "BSE001",
        "isPaidSlot": true,
        "paidSlotTier": "small",
        "imageUrl": "assets/images/pack_puppy_1.png",
        "title": "Small 3",
        "datetime": "2023-01-01 10:00",
        "location": {
            "address":"1400 W Mesquite St, Chandler, AZ, US, 85224",
            "streetNumber": "1400",
            "street": "W Mesquite St",
            "city": "Chandler",
            "state": "AZ",
            "country": "US",
            "zipcode": "85224"
        }
    }
]

